[
{"key": "AG", "latitude":37.3000, "longitude":13.6000, "name": "Agrigento"},
{"key": "AL", "latitude":44.9167, "longitude":86.167, "name": "Alessandria"},
{"key": "AN", "latitude":43.6167, "longitude":13.5167, "name": "Ancona"},
{"key": "AO", "latitude":45.7333, "longitude":73.167, "name": "Aosta"},
{"key": "AR", "latitude":43.4667, "longitude":11.8833, "name": "Arezzo"},
{"key": "AP", "latitude":42.8500, "longitude":13.5667, "name": "Ascoli Piceno"},
{"key": "AT", "latitude":44.8833, "longitude":82.000, "name": "Asti"},
{"key": "AV", "latitude":40.9167, "longitude":14.7833, "name": "Avellino"},
{"key": "BA", "latitude":41.1167, "longitude":16.8833, "name": "Bari"},
{"key": "BL", "latitude":46.1333, "longitude":12.2167, "name": "Belluno"},
{"key": "BN", "latitude":41.1333, "longitude":14.7667, "name": "Benevento"},
{"key": "BG", "latitude":45.7000, "longitude":96.667, "name": "Bergamo"},
{"key": "BI", "latitude":45.5667, "longitude":80.500, "name": "Biella"},
{"key": "BO", "latitude":44.5000, "longitude":11.3500, "name": "Bologna"},
{"key": "BZ", "latitude":46.5000, "longitude":11.3333, "name": "Bolzano"},
{"key": "BS", "latitude":44.5333, "longitude":10.2000, "name": "Brescia"},
{"key": "BR", "latitude":40.6500, "longitude":17.9333, "name": "Brindisi"},
{"key": "CA", "latitude":39.2167, "longitude":91.667, "name": "Cagliari"},
{"key": "CL", "latitude":37.4833, "longitude":14.0667, "name": "Caltanisetta"},
{"key": "CB", "latitude":41.5667, "longitude":14.6500, "name": "Campobasso"},
{"key": "CE", "latitude":41.0667, "longitude":14.3167, "name": "Caserta"},
{"key": "CT", "latitude":37.5000, "longitude":15.0833, "name": "Catania"},
{"key": "CZ", "latitude":38.9000, "longitude":16.5833, "name": "Catanzaro"},
{"key": "CH", "latitude":42.3500, "longitude":14.1667, "name": "Chieti"},
{"key": "CO", "latitude":45.8000, "longitude":90.833, "name": "Como"},
{"key": "CS", "latitude":39.2833, "longitude":16.2500, "name": "Cosenza"},
{"key": "CR", "latitude":45.1333, "longitude":10.0333, "name": "Cremona"},
{"key": "KR", "latitude":39.0833, "longitude":17.1333, "name": "Crotone"},
{"key": "CN", "latitude":44.4000, "longitude":75.500, "name": "Cuneo"},
{"key": "EN", "latitude":37.5667, "longitude":14.2667, "name": "Enna"},
{"key": "FE", "latitude":44.8333, "longitude":11.6333, "name": "Ferrara"},
{"key": "FI", "latitude":43.7667, "longitude":11.2500, "name": "Firenze"},
{"key": "FG", "latitude":41.4667, "longitude":15.5500, "name": "Foggia"},
{"key": "FO", "latitude":44.2167, "longitude":12.0500, "name": "Forlì"},
{"key": "FR", "latitude":41.6333, "longitude":13.3667, "name": "Frosinone"},
{"key": "GE", "latitude":44.4167, "longitude":89.167, "name": "Genova"},
{"key": "GO", "latitude":45.9500, "longitude":13.6333, "name": "Gorizia"},
{"key": "GR", "latitude":42.7667, "longitude":11.1167, "name": "Grosseto"},
{"key": "IM", "latitude":43.8833, "longitude":80.167, "name": "Imperia"},
{"key": "IS", "latitude":41.6000, "longitude":14.2333, "name": "Isernia"},
{"key": "AQ", "latitude":42.3500, "longitude":13.4000, "name": "L'Aquila"},
{"key": "SP", "latitude":44.1167, "longitude":98.333, "name": "La Spezia"},
{"key": "LT", "latitude":41.4667, "longitude":12.8833, "name": "Latina"},
{"key": "LE", "latitude":40.3500, "longitude":18.1833, "name": "Lecce"},
{"key": "LC", "latitude":45.8500, "longitude":93.833, "name": "Lecco"},
{"key": "LI", "latitude":43.5500, "longitude":10.3167, "name": "Livorno"},
{"key": "LO", "latitude":45.3167, "longitude":95.000, "name": "Lodi"},
{"key": "LU", "latitude":43.8500, "longitude":10.5167, "name": "Lucca"},
{"key": "MC", "latitude":43.3000, "longitude":13.4500, "name": "Macerata"},
{"key": "MN", "latitude":45.1500, "longitude":10.7833, "name": "Mantova"},
{"key": "MS", "latitude":44.3333, "longitude":10.0833, "name": "Massa"},
{"key": "MT", "latitude":40.6833, "longitude":16.6000, "name": "Matera"},
{"key": "ME", "latitude":38.1833, "longitude":15.5667, "name": "Messina"},
{"key": "MI", "latitude":45.4667, "longitude":91.833, "name": "Milano"},
{"key": "MO", "latitude":44.6500, "longitude":10.9167, "name": "Modena"},
{"key": "NA", "latitude":40.3500, "longitude":14.2500, "name": "Napoli"},
{"key": "NO", "latitude":45.4500, "longitude":86.333, "name": "Novara"},
{"key": "NU", "latitude":40.3167, "longitude":92.667, "name": "Nuoro"},
{"key": "OR", "latitude":39.9000, "longitude":86.000, "name": "Oristano"},
{"key": "PD", "latitude":45.4000, "longitude":11.8833, "name": "Padova"},
{"key": "PA", "latitude":38.1167, "longitude":13.3500, "name": "Palermo"},
{"key": "PR", "latitude":44.8000, "longitude":10.3500, "name": "Parma"},
{"key": "PV", "latitude":45.1833, "longitude":91.667, "name": "Pavia"},
{"key": "PG", "latitude":43.1167, "longitude":12.4000, "name": "Perugia"},
{"key": "PS", "latitude":43.9000, "longitude":12.9167, "name": "Pesaro"},
{"key": "PE", "latitude":42.4500, "longitude":14.2167, "name": "Pescara"},
{"key": "PC", "latitude":45.0500, "longitude":96.833, "name": "Piacenza"},
{"key": "PI", "latitude":43.7167, "longitude":10.4000, "name": "Pisa"},
{"key": "PT", "latitude":43.9333, "longitude":10.9167, "name": "Pistoia"},
{"key": "PN", "latitude":45.9500, "longitude":12.6500, "name": "Pordenone"},
{"key": "PZ", "latitude":40.6333, "longitude":15.8167, "name": "Potenza"},
{"key": "PO", "latitude":43.8833, "longitude":11.1000, "name": "Prato"},
{"key": "RG", "latitude":36.9333, "longitude":14.7333, "name": "Ragusa"},
{"key": "RA", "latitude":44.4167, "longitude":12.2000, "name": "Ravenna"},
{"key": "RC", "latitude":38.1000, "longitude":15.6500, "name": "Reggio Calabria"},
{"key": "RE", "latitude":44.7000, "longitude":10.6333, "name": "Reggio Emilia"},
{"key": "RI", "latitude":42.3667, "longitude":12.8667, "name": "Rieti"},
{"key": "RN", "latitude":44.0667, "longitude":12.5667, "name": "Rimini"},
{"key": "RM", "latitude":41.9000, "longitude":12.4833, "name": "Roma"},
{"key": "RO", "latitude":45.0667, "longitude":11.8000, "name": "Rovigo"},
{"key": "SA", "latitude":40.6833, "longitude":14.7667, "name": "Salerno"},
{"key": "SS", "latitude":40.7167, "longitude":85.667, "name": "Sassari"},
{"key": "SV", "latitude":44.3167, "longitude":84.667, "name": "Savona"},
{"key": "SI", "latitude":43.3167, "longitude":11.3000, "name": "Siena"},
{"key": "SR", "latitude":37.0667, "longitude":15.2833, "name": "Siracusa"},
{"key": "SO", "latitude":46.1833, "longitude":98.833, "name": "Sondrio"},
{"key": "TA", "latitude":40.4667, "longitude":17.2333, "name": "Taranto"},
{"key": "TE", "latitude":42.6667, "longitude":13.7167, "name": "Teramo"},
{"key": "TR", "latitude":42.5667, "longitude":12.6667, "name": "Terni"},
{"key": "TO", "latitude":45.0667, "longitude":77.000, "name": "Torino"},
{"key": "TP", "latitude":38.0167, "longitude":12.5333, "name": "Trapani"},
{"key": "TN", "latitude":46.0667, "longitude":11.1333, "name": "Trento"},
{"key": "TV", "latitude":45.6667, "longitude":12.2500, "name": "Treviso"},
{"key": "TS", "latitude":45.6500, "longitude":13.7667, "name": "Trieste"},
{"key": "UD", "latitude":46.0667, "longitude":13.2333, "name": "Udine"},
{"key": "VA", "latitude":45.8333, "longitude":88.167, "name": "Varese"},
{"key": "VE", "latitude":45.4333, "longitude":12.3500, "name": "Venezia"},
{"key": "VB", "latitude":45.9333, "longitude":85.500, "name": "Verbania"},
{"key": "VC", "latitude":45.3333, "longitude":84.167, "name": "Vercelli"},
{"key": "VR", "latitude":45.4500, "longitude":11.0000, "name": "Verona"},
{"key": "VV", "latitude":38.6667, "longitude":16.0100, "name": "Vibo Valentia"},
{"key": "VI", "latitude":45.5500, "longitude":11.5500, "name": "Vicenza"},
{"key": "VT", "latitude":42.5500, "longitude":12.1167, "name": "Viterbo"}
]